{
    "$schema": "https://vega.github.io/schema/vega-lite/v5.json",
    "title": {
      "text":"Incidence Rate of water-borne diseases By State in Malaysia per 1M population",
      "fontSize": 18,
      "anchor": "middle",  
       "align": "center",
       "orient": "top"  
  },
    "width": 849,
    "height": 520,
    "projection": {"type": "equalEarth",
                    "scale":2600,
                    "center": [110.3, -1],
                    "translate": [480, 490]},
    "params" :[
      {
        "name" : "disease",
        "value" : "typhoid normalized",
        "bind": {
          "input": "select",
          "options":[
          "typhoid normalized",
          "hepatitis A normalized"
        ],
        "name": "Select Disease: ",
        "labels": [
          "Typhoid",
          "Hepatitis A"
        ]
      }
    }
    ],
    "data": {
      "url": "https://raw.githubusercontent.com/AliciaChongPQ/FIT3179/refs/heads/main/ne_1.topojson",
      "format": {"type": "topojson", "feature": "ne_10m_admin_1_states_provinces"}
    },
    "layer": [
      

    {"transform": [
      {
        "lookup": "properties.name",
        "from": {
          "data": {
            "url": "https://raw.githubusercontent.com/AliciaChongPQ/FIT3179-Assignment-2/refs/heads/main/diseases_per_1M.csv"
          },
          "key": "State",
          "fields": ["typhoid normalized","hepatitis A normalized"]
        }
      },
      {
        "calculate": "datum[disease]",
        "as":"selected_disease"
      }
    ],
    "mark": {"type": "geoshape",
            "stroke": "floralwhite",
          "strokeWidth": 1.5},
    "encoding": {
      "color": {      
        "field": "selected_disease",      
        "type": "quantitative",      
        "scale": {
          "type": "linear",
          "domain" : [0, 15, 30, 60],
          "range": ["#f7e0df","#c74940", "#992820", "#570c07"] 
        },
        "title": "Incidence Per 1M Population",
        "legend": {
          "orient": "bottom-left",
          "labelFontSize": 14,
          "titleFontSize": 12
        } 
      }
    }
},
{
  "data": {
    "values": [
      {"state": "Johor", "latitude": 1.9854, "longitude": 103.2618},
      {"state": "Kedah", "latitude": 6.1184, "longitude": 100.3681},
      {"state": "Kelantan", "latitude": 6.2456, "longitude": 101.9976},
      {"state": "Melaka", "latitude": 2.000, "longitude": 101.9000},
      {"state": "N.Sembilan", "latitude": 2.7255, "longitude": 102.1424},
      {"state": "Pahang", "latitude": 3.8126, "longitude": 102.3256},
      {"state": "Perak", "latitude": 4.5921, "longitude": 100.4901},
      {"state": "Perlis", "latitude": 6.4431, "longitude": 100.1983},
      {"state": "Penang", "latitude": 5.4141, "longitude": 100.3288},
      {"state": "Sabah", "latitude": 5.38, "longitude": 117.0753},
      {"state": "Sarawak", "latitude": 2.478, "longitude": 113.0592},
      {"state": "Selangor", "latitude": 3.3738, "longitude": 101.3683},
      {"state": "Terengganu", "latitude": 5.0117, "longitude": 103.2524},
      {"state": "K.Lumpur", "latitude": 3.139, "longitude": 101.6869}
    ]
  },
  "mark": {
    "type": "text",
    "color": "black",
    "fontSize": 10,
    "dx": 5,
    "dy": -5
  },
  "encoding": {
    "longitude": {"field": "longitude", "type": "quantitative"},
    "latitude": {"field": "latitude", "type": "quantitative"},
    "text": {"field": "state", "type": "nominal"}
  }
}, 
{
  "data": {
    "values": [
      {"state": "\\", "latitude": 5.55, "longitude": 115.0}
    ]
  },
  "mark": {
    "type": "text",
    "color": "black",
    "fontWeight": "bold",
    "fontSize": 40,
    "dx": 5,
    "dy": -5
  },
  "encoding": {
    "longitude": {"field": "longitude", "type": "quantitative"},
    "latitude": {"field": "latitude", "type": "quantitative"},
    "text": {"field": "state", "type": "nominal"}
  }
},
{
  "data": {
    "values": [
      {"state": "---", "latitude": 6.05, "longitude": 112.5},
      {"state": "----", "latitude": 6.05, "longitude": 113.0}
    ]
  },
  "mark": {
    "type": "text",
    "color": "lightyellow",
    "fontWeight": "bold",
    "fontSize": 190,
    "dx": 5,
    "dy": -5
  },
  "encoding": {
    "longitude": {"field": "longitude", "type": "quantitative"},
    "latitude": {"field": "latitude", "type": "quantitative"},
    "text": {"field": "state", "type": "nominal"}
  }
},
{
  "data": {
    "values": [
      {"state": "Sabah sees the highest rate of both ", "latitude": 6.00, "longitude": 113.0753},
      {"state": "diseases compared to other States", "latitude": 5.80, "longitude": 113.0753}
    ]
  },
  "mark": {
    "type": "text",
    "color": "black",
    "fontWeight": "bold",
    "fontSize": 12,
    "dx": 5,
    "dy": -5
  },
  "encoding": {
    "longitude": {"field": "longitude", "type": "quantitative"},
    "latitude": {"field": "latitude", "type": "quantitative"},
    "text": {"field": "state", "type": "nominal"}
  }
}, 

{
  "data": {
    "url": "https://raw.githubusercontent.com/AliciaChongPQ/FIT3179/refs/heads/main/ne_1.topojson",
    "format": {
      "type": "topojson",
      "feature": "ne_10m_admin_1_states_provinces"
    }
  },
  "mark": {
    "type": "geoshape",
    "fill": "transparent",
    "stroke": "transparent",  
    "strokeWidth": 0.3   

  },
  "encoding": {
    "tooltip": [
      {"field": "properties.name", "type": "nominal", "title": "State"},
      {"field": "selected_disease", "type": "quantitative",  "title": "Incidence Rate Per 1M Population"}
      
    ]
  },
  "transform": [
      {
        "lookup": "properties.name",
        "from": {
          "data": {
            "url": "https://raw.githubusercontent.com/AliciaChongPQ/FIT3179/refs/heads/main/diseases_per_100000.csv"
          },
          "key": "State",
          "fields": ["typhoid normalized","hepatitis A normalized","cholera normalized", "malaria normalized"]
        }
      },
      {
        "calculate": "datum[disease]",
        "as":"selected_disease"
      }
    ]
},
{"data": {
    "values": [
      {"state": "Johor", "latitude": 1.8854, "longitude": 103.4018},
      {"state": "Kedah", "latitude": 6.1184, "longitude": 100.3681},
      {"state": "Kelantan", "latitude": 6.2456, "longitude": 101.9976},
      {"state": "Melaka", "latitude": 2.000, "longitude": 101.9000},
      {"state": "Negeri Sembilan", "latitude": 2.7255, "longitude": 102.1424},
      {"state": "Pahang", "latitude": 3.8126, "longitude": 102.3256},
      {"state": "Perak", "latitude": 4.5921, "longitude": 100.4901},
      {"state": "Perlis", "latitude": 6.4431, "longitude": 100.1983},
      {"state": "Pulau Pinang", "latitude": 5.4141, "longitude": 100.3288},
      {"state": "Sabah", "latitude": 5.38, "longitude": 117.0753},
      {"state": "Sarawak", "latitude": 2.478, "longitude": 113.0592},
      {"state": "Selangor", "latitude": 3.3738, "longitude": 101.3683},
      {"state": "Terengganu", "latitude": 5.0117, "longitude": 103.2524}
    ]
  },
  "transform": [
    {
      "lookup": "state",
      "from": {
        "data": {
          "url": "https://raw.githubusercontent.com/AliciaChongPQ/FIT3179-Assignment-2/refs/heads/main/diseases_per_1M.csv"
        },
        "key": "State",
        "fields": ["percentage_clean_water"]
      }
    },
    {
      "calculate": "100 - datum.percentage_clean_water",
      "as": "%_without_clean_water"
    }
  ],
"mark": {"type" : "point", "stroke": "white", "strokeWidth":3},
"encoding": {
  "longitude":{"field": "longitude", "type":"quantitative"},
  "latitude": {"field": "latitude", "type": "quantitative"},
  "size": {      
    "field": "%_without_clean_water",      
    "type": "quantitative",      
    "title": "%_without_clean_water",
    "legend": {
    "orient": "bottom-left",
    "labelFontSize": 12,
    "titleFontSize": 12
  } 
  },
  "color": {"value": "lightgreen"},
  
  "tooltip": [
      {"field": "state", "type": "nominal", "title": "State"},
      {"field": "%_without_clean_water", "type": "quantitative", "title": "% Without Clean Water", "format": ".2f"}
    ]
}

},
{"data": {
  "values": [
    {"state": "Johor", "latitude": 1.8854, "longitude": 103.4018},
    {"state": "Kedah", "latitude": 6.1184, "longitude": 100.3681},
    {"state": "Kelantan", "latitude": 6.2456, "longitude": 101.9976},
    {"state": "Melaka", "latitude": 2.000, "longitude": 101.9000},
    {"state": "Negeri Sembilan", "latitude": 2.7255, "longitude": 102.1424},
    {"state": "Pahang", "latitude": 3.8126, "longitude": 102.3256},
    {"state": "Perak", "latitude": 4.5921, "longitude": 100.4901},
    {"state": "Perlis", "latitude": 6.4431, "longitude": 100.1983},
    {"state": "Pulau Pinang", "latitude": 5.4141, "longitude": 100.3288},
    {"state": "Sabah", "latitude": 5.38, "longitude": 117.0753},
    {"state": "Sarawak", "latitude": 2.478, "longitude": 113.0592},
    {"state": "Selangor", "latitude": 3.3738, "longitude": 101.3683},
    {"state": "Terengganu", "latitude": 5.0117, "longitude": 103.2524}
  ]
},
"transform": [
  {
    "lookup": "state",
    "from": {
      "data": {
        "url": "https://raw.githubusercontent.com/AliciaChongPQ/FIT3179-Assignment-2/refs/heads/main/diseases_per_1M.csv"
      },
      "key": "State",
      "fields": ["percentage_clean_water"]
    }
  },
  {
    "calculate": "100 - datum.percentage_clean_water",
    "as": "%_without_clean_water"
  }
],
"mark": {"type" : "point", "stroke": "black", "strokeWidth":2},
"encoding": {
"longitude":{"field": "longitude", "type":"quantitative"},
"latitude": {"field": "latitude", "type": "quantitative"},
"size": {      
  "field": "%_without_clean_water",      
  "type": "quantitative",      
  "title": "%_without_clean_water",
  "legend": {
    "orient": "bottom-left",
    "labelFontSize": 12,
    "titleFontSize": 12
  } 
},
"color": {"value": "lightgreen"},

"tooltip": [
    {"field": "state", "type": "nominal", "title": "State"},
    {"field": "%_without_clean_water", "type": "quantitative", "title": "% Without Clean Water", "format": ".2f"}
  ]
}

}]
  }